[
{"name":"长剑牌","logo":"https://zhengxin-pub.cdn.bcebos.com/logopic/fa2b3dc48749a7f183d46f110802d10d_fullsize.jpg","round":"天使轮","founding_time":"2018-02-08","territory":"深圳","introduction":"辣酱调味品品牌","enterprise":"深圳市聚味食品科技有限公司","address":"深圳市龙岗区坂田街道五和和磡社区4巷4号一楼","lng":"114.0681 ","lat":"22.6282 ","registered_capital":"100万(元)","gszch":"440300203683221","zzjgdm":"MA5F0EB1-6","phone":"13823371267"},
{"name":"美鑫食品","logo":"https://zhengxin-pub.cdn.bcebos.com/logopic/a1c062b2e4b1dba5e7d0226d12cc1b2f_fullsize.jpg","round":"A轮","founding_time":"2017-09-29","territory":"徐州","introduction":"复合调味品研发商","enterprise":"江苏美鑫食品科技有限公司","address":"徐州经济技术开发区宝莲寺路22号","lng":"117.2830 ","lat":"34.3000 ","registered_capital":"9,024万(元)","gszch":"320301000088351","zzjgdm":"MA1R8YLX-3","phone":"0516-83508767"},
{"name":"小酱仙","logo":"https://zhengxin-pub.cdn.bcebos.com/logopic/d7b8af59bf68b1d626ba8c0759038808_fullsize.jpg","round":"-","founding_time":"2017-02-15","territory":"北京","introduction":"拌面酱料品牌","enterprise":"北京九门坊商贸股份有限公司","address":"北京市朝阳区延静里中街3号2号楼二层206号房间","lng":"116.4909 ","lat":"39.9232 ","registered_capital":"1,131.22万(元)","gszch":"110105022945941","zzjgdm":"MA00BTPK-9","phone":"65069780"},
{"name":"广海记","logo":"https://zhengxin-pub.cdn.bcebos.com/logopic/09433595600f7f4fc5d24bb5f0c790e7_fullsize.jpg","round":"-","founding_time":"2016-08-02","territory":"新疆","introduction":"辣椒加工生产商","enterprise":"新疆广海记农业科技发展有限公司","address":"新疆塔城地区沙湾县安集海镇工贸区（迎宾路22栋）","lng":"83.6457 ","lat":"46.5294 ","registered_capital":"3,000万(元)","gszch":"654223050011353","zzjgdm":"MA776MT0-3","phone":"0993-6911360"},
{"name":"媛家酱","logo":"https://zhengxin-pub.cdn.bcebos.com/logopic/e086b4ca99d5f2d26a604d45a4a466a5_fullsize.jpg","round":"-","founding_time":"2016-01-08","territory":"北京","introduction":"酱类调味品生产商","enterprise":"北京媛家科技发展有限公司","address":"北京市昌平区沙河镇北二村小李庄路南(北二村9号)南楼一层121","lng":"116.2786 ","lat":"40.1377 ","registered_capital":"1,041.6668万(元)","gszch":"110114020535810","zzjgdm":"MA0033U8-8","phone":"010-60777886"},
{"name":"二和嫁嫁","logo":"https://zhengxin-pub.cdn.bcebos.com/logopic/6c4894be80f54c86a25e03744c7db22f_fullsize.jpg","round":"A轮","founding_time":"2015-08-28","territory":"武汉","introduction":"互联网酱料品牌","enterprise":"武汉明利和丰食品有限公司","address":"武汉市江夏区大桥新区大花岭工业园C2号厂房","lng":"114.3077 ","lat":"30.4150 ","registered_capital":"404.67万(元)","gszch":"420103000305685","zzjgdm":"34725328-5","phone":"027-88081111"},
{"name":"鲜8食品","logo":"https://zhengxin-pub.cdn.bcebos.com/logopic/be6f88b08945fa04b4051b355412b80b_fullsize.jpg","round":"-","founding_time":"2015-05-20","territory":"北京","introduction":"高品质调味品品牌","enterprise":"北京八日鲜食品有限公司","address":"北京市海淀区清河嘉园东区甲1号楼14层1440","lng":"116.3529 ","lat":"40.0361 ","registered_capital":"100万(元)","gszch":"110106019146895","zzjgdm":"34422822-8","phone":"13381230968"},
{"name":"新青大","logo":"https://zhengxin-pub.cdn.bcebos.com/logopic/fc4bb134ebd215f745932fab1f768a94_fullsize.jpg","round":"-","founding_time":"2015-01-19","territory":"青岛","introduction":"调味品经销商","enterprise":"青岛新青大食品有限公司","address":"山东省青岛市平度市经济开发区重庆路300号","lng":"120.3912 ","lat":"36.1250 ","registered_capital":"1,000万(元)","gszch":"370283230062090","zzjgdm":"32598037-7","phone":"15588686199"},
{"name":"味之浓","logo":"https://zhengxin-pub.cdn.bcebos.com/logopic/f20681e0a9ef06415ce40ff95e39a583_fullsize.jpg","round":"被收购","founding_time":"2013-05-21","territory":"四川","introduction":"家用酱类调味品研发销售商","enterprise":"四川味之浓食品有限公司","address":"眉山市东坡区泡菜产业园区","lng":"103.8600 ","lat":"30.0326 ","registered_capital":"1,200万(元)","gszch":"511402000038205","zzjgdm":"06896162-5","phone":"028-38402660"},
{"name":"福鑫食品","logo":"https://zhengxin-pub.cdn.bcebos.com/logopic/43e66e1f79faa46b33186ee3e5cf3e4f_fullsize.jpg","round":"-","founding_time":"2011-02-21","territory":"福建","introduction":"调味品经销商","enterprise":"福鑫食品有限公司","address":"浙江省嘉兴市海宁市长安镇环镇北路138号一号楼二层","lng":"120.4464 ","lat":"30.4696 ","registered_capital":"5,000万(元)","gszch":"330481000193643","zzjgdm":"32297903-9","phone":"87470988"},
{"name":"嘉豪食品","logo":"https://zhengxin-pub.cdn.bcebos.com/logopic/446887a88a8d6a16f8884568d1f28ff1_fullsize.jpg","round":"被收购","founding_time":"2008-05-28","territory":"广东","introduction":"高档调味品服务商","enterprise":"广东嘉豪食品有限公司","address":"中山市港口镇沙港西路86号","lng":"113.3619 ","lat":"22.5920 ","registered_capital":"11,968万(元)","gszch":"442000000129652","zzjgdm":"67520881-1","phone":"0760-88409938"},
{"name":"海天味业","logo":"https://zhengxin-pub.cdn.bcebos.com/logopic/0feba3b81b9e5ec6346ef85133f53ab9_fullsize.jpg","round":"IPO","founding_time":"2000-04-08","territory":"广东","introduction":"调味品研发销售商","enterprise":"佛山市海天调味食品股份有限公司","address":"佛山市文沙路16号","lng":"113.1286 ","lat":"23.0531 ","registered_capital":"324,044.3208万(元)","gszch":"440600400000729","zzjgdm":"72244875-5","phone":"0757-82832023"},
{"name":"川崎食品","logo":"https://zhengxin-pub.cdn.bcebos.com/logopic/d1a902eb82923716e109c24532102fad_fullsize.jpg","round":"天使轮","founding_time":"1998-10-12","territory":"上海","introduction":"火锅调料调料生产企业","enterprise":"上海川崎食品有限公司","address":"浦东建陆路96号","lng":"121.6177 ","lat":"31.3378 ","registered_capital":"3,000万(元)","gszch":"310115000484993","zzjgdm":"13359340-1","phone":"021-58480886"},
{"name":"千禾味业","logo":"https://zhengxin-pub.cdn.bcebos.com/logopic/7707193a7ecd0772e4220898db74db1f_fullsize.jpg","round":"IPO","founding_time":"1996-01-31","territory":"四川","introduction":"调味品研发销售商","enterprise":"千禾味业食品股份有限公司","address":"眉山市东坡区城南岷家渡","lng":"103.8385 ","lat":"30.0483 ","registered_capital":"32,620万(元)","gszch":"511402000004019","zzjgdm":"20731169-0","phone":"028-38226984"},
{"name":"安记食品","logo":"https://zhengxin-pub.cdn.bcebos.com/logopic/27f95240427146d506c068885bc226bc_fullsize.jpg","round":"IPO","founding_time":"1995-09-28","territory":"福建","introduction":"调味品生产销售商","enterprise":"安记食品股份有限公司","address":"泉州市清濛科技工业区4-9(A)(美泰路)","lng":"118.5668 ","lat":"24.8774 ","registered_capital":"23,520万(元)","gszch":"350500400029518","zzjgdm":"61188111-8","phone":"0595-22499222"},
{"name":"咸亨股份","logo":"https://zhengxin-pub.cdn.bcebos.com/logopic/80341cf9276476003e2608bde153a0dd_fullsize.jpg","round":"新三板","founding_time":"1994-06-30","territory":"绍兴","introduction":"腐乳黄酒及其他调味品制造商","enterprise":"绍兴咸亨食品股份有限公司","address":"浙江省绍兴市绍三线永仁路","lng":"120.6048 ","lat":"30.0294 ","registered_capital":"7,920万(元)","gszch":"330600000038418","zzjgdm":"71252605-1","phone":"0575-88020442"},
{"name":"太阳食品","logo":"https://zhengxin-pub.cdn.bcebos.com/logopic/e936135c7d64a3240e9fcec94be43587_fullsize.jpg","round":"-","founding_time":"1990-08-20","territory":"西安","introduction":"食品调料生产商","enterprise":"西安太阳食品集团公司","address":"西安市西影路64号(原32号)","lng":"109.0031 ","lat":"34.2373 ","registered_capital":"3,000万(元)","gszch":"610100000000107","zzjgdm":"22060538-6","phone":"85524450"},
{"name":"老恒和","logo":"https://zhengxin-pub.cdn.bcebos.com/logopic/8ee11ec11bdd065aa06e19a6c14f3ae9_fullsize.jpg","round":"IPO","founding_time":"1979-07-01","territory":"湖州","introduction":"老字号食品调料品牌","enterprise":"湖州老恒和酿造有限公司","address":"湖州市八里店食品工业园区","lng":"120.1653 ","lat":"30.8472 ","registered_capital":"1,139.391万(元)","gszch":"330503000014773","zzjgdm":"14703894-3","phone":"0572-2388882"},
{"name":"VeebaFood","logo":"https://zhengxin-pub.cdn.bcebos.com/logopic/ef49390431241113d3cd9b7bb8e68c9b_fullsize.jpg","round":"B轮","founding_time":"2013-01-01","territory":"印度","introduction":"印度调味品品牌","enterprise":"—","address":"—","lng":"—","lat":"—","registered_capital":"—","gszch":"—","zzjgdm":"—","phone":"—"},
{"name":"MayaKaimal","logo":"https://zhengxin-pub.cdn.bcebos.com/logopic/3b83d875d381024bd827ea68cd8f4fb6_fullsize.jpg","round":"-","founding_time":"2003-01-01","territory":"印度","introduction":"印度调味品供应商","enterprise":"—","address":"—","lng":"—","lat":"—","registered_capital":"—","gszch":"—","zzjgdm":"—","phone":"—"}
]